City_ID,City,Country,Max Temp,Current Description,Lat,Lng,Hotel Name
3,Humaita,BR,76.95,clear sky,-7.5061,-63.0208,Corrêa Hotel
5,Georgetown,MY,82.33,scattered clouds,5.4112,100.3354,Cititel Penang
6,Hilo,US,82.27,overcast clouds,19.7297,-155.09,Hilo Hawaiian Hotel
10,Vaini,TO,77.16,scattered clouds,-21.2,-175.2,Keleti Beach Resort
11,Faanui,PF,79.34,scattered clouds,-16.4833,-151.75,Bora-Bora Pearl Beach Resort & Spa
19,Ganzhou,CN,78.85,overcast clouds,28.8184,115.4327,Zhanqian Grand Hotel
21,Kavieng,PG,83.44,light rain,-2.5744,150.7967,Nusa Island Retreat
22,Hithadhoo,MV,81.79,scattered clouds,-0.6,73.0833,Scoop Guest House
23,Rikitea,PF,75.13,clear sky,-23.1203,-134.9692,People ThankYou
26,San Patricio,US,85.89,clear sky,28.017,-97.5169,"Motel 6 Sinton, TX"
28,Puerto Escondido,MX,83.23,scattered clouds,15.85,-97.0667,Aldea del Bazar Hotel and Spa
29,Atuona,PF,78.03,clear sky,-9.8,-139.0333,Villa Enata
31,Sorong,ID,83.32,overcast clouds,-0.8833,131.25,Waigo Splash Hotel
33,Valdosta,US,84.97,overcast clouds,30.8327,-83.2785,Courtyard by Marriott Valdosta
35,Victoria,HK,88.18,moderate rain,22.2855,114.1577,Mini Central
50,San Policarpo,PH,85.32,overcast clouds,12.1791,125.5072,Agapita M. Nicart
76,Kavaratti,IN,81.97,moderate rain,10.5669,72.642,Hotels in Lakshadweep Islands
79,Half Moon Bay,US,77.02,overcast clouds,37.4636,-122.4286,"The Ritz-Carlton, Half Moon Bay"
80,Katsuura,JP,75.97,overcast clouds,35.1333,140.3,Katsuura Hotel Mikazuki
83,Salalah,OM,80.69,overcast clouds,17.0151,54.0924,"HAMDAN PLAZA HOTEL SALALAH, an HTG Hotel"
84,Cody,US,80.04,clear sky,44.5263,-109.0565,"Holiday Inn Cody-at Buffalo Bill Village, an IHG Hotel"
87,Vostok,RU,75.4,overcast clouds,46.4856,135.8833,
89,Ca Mau,VN,87.1,few clouds,9.1769,105.15,Mường Thanh Luxury Cà Mau Hotel
92,Namatanai,PG,85.12,light rain,-3.6667,152.4333,Seagulls Inn Namatani
101,Samarai,PG,83.7,scattered clouds,-10.6167,150.6667,Nuli Sapi
103,Kapaa,US,82.38,overcast clouds,22.0752,-159.319,Sheraton Kauai Coconut Beach Resort
106,Bula,PH,85.19,light rain,13.4701,123.278,ZONE 2 CASUGAD BULA CAM SUR
111,Bubaque,GW,79.75,light rain,11.2833,-15.8333,"Casa Dora, Bubaque"
112,Balabac,PH,81.93,overcast clouds,7.9868,117.0645,Batalla’s Lodging House
117,Lucea,JM,82.26,scattered clouds,18.451,-78.1736,Grand Palladium Jamaica Resort & Spa
118,Nouakchott,MR,75.13,few clouds,18.0858,-15.9785,HOTEL IMAN
123,Moirang,IN,80.65,overcast clouds,24.5,93.7667,"Lake View Hotel, Moirang"
126,Morehead,US,82.15,mist,37.2711,-87.1764,CCI Express Inn
133,Negombo,LK,80.65,scattered clouds,7.2083,79.8358,Hotel Sunset Beach
135,Nizwa,OM,89.67,overcast clouds,22.9333,57.5333,Orient Apartments
140,Makakilo City,US,80.92,overcast clouds,21.3469,-158.0858,Marriott's Ko Olina Beach Club
149,Lixourion,GR,79.61,clear sky,38.2019,20.4314,Hotel Summery
152,Itoman,JP,88.57,few clouds,26.1247,127.6694,Southern Beach Hotel & Resort Okinawa
153,Campo Maior,BR,77.9,overcast clouds,-4.8278,-42.1686,Elite Hotel
156,Lorengau,PG,85.3,broken clouds,-2.0226,147.2712,Lorengau Harbourside Hotel
159,Labuhan,ID,85.5,broken clouds,-6.8844,112.2051,DoubleFAG
162,Hambantota,LK,80.94,scattered clouds,6.1241,81.1185,Bungalow 63
164,Lincoln,US,89.51,clear sky,40.8,-96.667,Courtyard by Marriott Lincoln Downtown/Haymarket
165,Hobyo,SO,75.58,clear sky,5.3505,48.5268,Iftin hotel hobyo
167,Poum,NC,77.45,broken clouds,-20.2333,164.0167,
170,Kudahuvadhoo,MV,82.96,broken clouds,2.6708,72.8944,Niyama Private Islands Maldives
172,Dhamrai,BD,84.18,light rain,23.9202,90.2109,Dhamrai to Kalampur Auto Station
176,Koulikoro,ML,77.47,light rain,14.0,-7.75,
179,Marzuq,YE,78.31,overcast clouds,14.4,46.4667,
180,Tiarei,PF,77.02,light rain,-17.5333,-149.3333,Le Rocher de Tahiti
185,Benicarlo,ES,75.9,broken clouds,40.4165,0.4271,Hotel & Spa Peñíscola Plaza Suites
187,Pringsewu,ID,85.89,scattered clouds,-5.3582,104.9744,Urban Style by Front One
192,Aden,YE,84.99,overcast clouds,12.7794,45.0367,Sama Emirate Hotel
193,Furukawa,JP,78.55,overcast clouds,38.5717,140.9556,Value the Hotel Furukawa Sanbongi
206,Ternate,ID,81.77,overcast clouds,0.8,127.4,Sahid Bela Ternate Hotel
209,Goderich,CA,75.52,overcast clouds,43.7501,-81.7165,Harmony Inn
210,Manga,BF,77.67,overcast clouds,11.6636,-1.0731,Auberge du 11 décembre de la cité CNSS à Manga
211,Tautira,PF,77.83,light rain,-17.7333,-149.15,Pension Oaoa
213,Butaritari,KI,82.45,light rain,3.0707,172.7902,Isles Sunset Lodge
218,Farah,AF,78.06,few clouds,32.5,62.5,
219,Sakaiminato,JP,89.58,broken clouds,35.55,133.2333,Italian pasley
220,Tondi,IN,82.44,overcast clouds,9.7333,79.0167,Star Lodge
221,Bluefields,NI,76.87,overcast clouds,12.0137,-83.7635,Nicaraguan Typical House Downtown
222,Laguna,US,84.76,clear sky,38.421,-121.4238,"Holiday Inn Express & Suites Elk Grove Central - Hwy 99, an IHG Hotel"
224,Cockburn Town,TC,81.55,scattered clouds,21.4612,-71.1419,Osprey Beach Hotel
228,Norman Wells,CA,78.84,broken clouds,65.282,-126.8329,Heritage Hotel
231,Balad,IQ,89.26,clear sky,34.0164,44.1453,رضاوي زنوبة
238,Rongcheng,CN,84.22,overcast clouds,30.634,117.8517,Shell Shandong Liaocheng Development District South Huangshan Road Hotel
241,Seminole,US,84.56,clear sky,28.7086,-81.2081,The Oviedo Lodge Motel
248,Erenhot,CN,82.0,overcast clouds,43.6475,111.9767,Erenhot Rurouni Youth Hostel
249,Boyolangu,ID,84.09,broken clouds,-8.1181,111.8935,Yos ega cv
252,Bengkulu,ID,83.43,light rain,-3.8004,102.2655,Grage Hotel Bengkulu
259,Gambissara,SN,75.9,light rain,13.2382,-14.3108,
260,San Leandro,US,77.16,scattered clouds,37.7249,-122.1561,Best Western Plus Airport Inn & Suites
263,Dwarka,IN,85.15,scattered clouds,22.2394,68.9678,Hotel Narayan Avezika Comfort
265,Champerico,GT,81.3,overcast clouds,14.3,-91.9167,"Hotel y restaurante ""El Diamante"""
266,Hermiston,US,83.05,clear sky,45.8404,-119.2895,Oxford Suites Hermiston
268,Luwuk,ID,79.57,overcast clouds,-0.9516,122.7875,Hotel Santika Luwuk
271,Simpang,ID,83.37,overcast clouds,-1.2667,104.0833,
273,Cabedelo,BR,77.67,scattered clouds,-6.9811,-34.8339,Pousada Camboinha
274,Minuri,PH,87.1,moderate rain,16.535,121.8574,
279,Sur,OM,86.76,overcast clouds,22.5667,59.5289,Sur Plaza Hotel
280,Arlit,NE,88.23,broken clouds,18.7369,7.3853,Case de Passage De la Prefecture
284,Biltine,TD,84.76,broken clouds,14.5333,20.9167,Hôtel Trois Étoiles de Biltine
287,Pochutla,MX,80.42,overcast clouds,15.7432,-96.4661,Hotel Posada San Jose
292,Athmallik,IN,82.67,overcast clouds,20.7219,84.5348,"Mishra resident and Advocate chamber,Bangalasahi,Athamallik,Angul"
294,Kualakapuas,ID,88.99,scattered clouds,-3.0091,114.3876,Guest House Izonk
298,San Benito Abad,CO,76.14,overcast clouds,8.929,-75.0271,"Tu casa en la villa "" Dónde la seño Cristina"""
299,Tura,IN,84.61,overcast clouds,25.5198,90.2201,Hotel RIKMAN Continental
300,Batagay,RU,80.01,overcast clouds,67.6333,134.6333,Gostinitsa Ki'ileekh
304,Bandarbeyla,SO,79.41,scattered clouds,9.4942,50.8122,JABIR HOTEL
307,Sinnamary,GF,77.07,overcast clouds,5.3833,-52.95,ALETHEIA Appartement Sinnamary
310,Deputatskiy,RU,75.54,broken clouds,69.3,139.9,Baza Otdykha
311,Freeport,US,78.78,clear sky,40.6576,-73.5832,The Freeport Inn and Marina
313,Urumqi,CN,77.95,clear sky,43.801,87.6005,Hua Ling Grand Hotel Urumqi
314,Shahe,CN,80.01,broken clouds,39.2708,113.5478,五台山宾馆
317,Shima,CN,84.22,light rain,24.4478,117.8111,龙海钻石大酒店
318,Kaitong,CN,80.91,overcast clouds,44.8135,123.15,Jinhe Fashion Hotel
321,Miami,US,84.22,scattered clouds,25.7743,-80.1937,Miami Sun Hotel- Downtown/Port of Miami
329,Kampong Thum,KH,86.94,broken clouds,12.7111,104.8887,Sambor Village Hotel
330,Amuntai,ID,89.1,few clouds,-2.4177,115.2494,Hotel Balqis
331,Huanren,CN,86.34,few clouds,41.2647,125.3667,Dynasty Wunvshan Ice Chateau
335,Meulaboh,ID,77.09,light rain,4.1363,96.1285,Kost Pria
336,Smithers,CA,77.32,scattered clouds,54.7804,-127.1743,"Prestige Hudson Bay Lodge, Premier Collection"
337,Dingle,PH,83.37,broken clouds,10.9995,122.6711,SEGAYA PROPERTY
342,Gannan,CN,84.15,overcast clouds,47.9147,123.5031,Gannan Supply and Marketing Cooperatives Hostel
345,Baffa,PK,81.95,light rain,34.4378,73.2194,Kisan veternary store Baffa
347,Windsor,CA,83.07,overcast clouds,42.3001,-83.0165,Detroit Marriott at the Renaissance Center
351,Alofi,NU,76.89,broken clouds,-19.0595,-169.9187,Taloa Heights
356,Noumea,NC,84.18,overcast clouds,-22.2763,166.4572,Hôtel Le Lagon
359,Palafrugell,ES,75.25,clear sky,41.9174,3.1631,Hotel La Torre
361,Bocas Del Toro,PA,80.08,overcast clouds,9.3333,-82.25,Hotel Bocas del Toro
362,Honiara,SB,87.4,broken clouds,-9.4333,159.95,Heritage Park Hotel
366,The Valley,AI,82.26,scattered clouds,18.217,-63.0578,CeBlue Villas & Beach Resort
371,Magdagachi,RU,84.83,scattered clouds,53.45,125.8,Motopolyana Magdagachi
373,Kloulklubed,PW,81.1,overcast clouds,7.0419,134.2556,Storyboard Beach Resort
375,Awbari,LY,78.46,clear sky,26.5921,12.7805,فندق أوباري
376,Indian Head,US,76.84,clear sky,38.6001,-77.1622,"Red Carpet Inn Indian Head, MD"
378,Dawei,MM,77.58,overcast clouds,14.0833,98.2,Hotel Dawei
382,Longhua,CN,81.54,moderate rain,23.6137,114.1919,Huadu Hotel
385,Osmena,PH,81.34,moderate rain,10.5208,119.9258,Arjemarkyza Lodge
388,Isangel,VU,82.51,scattered clouds,-19.55,169.2667,Tanna Lodge
390,Shimoda,JP,79.16,light rain,34.6667,138.95,Shimoda Tokyu Hotel
397,Berezovyy,RU,88.09,scattered clouds,51.6667,135.7,"Hotel ""Phoenix"""
403,Bathsheba,BB,81.21,few clouds,13.2167,-59.5167,Atlantis Hotel
404,Bosaso,SO,87.19,overcast clouds,11.2842,49.1816,Red Sea Hotel
407,Surt,LY,78.82,clear sky,31.2089,16.5887,الهادي ابوشعاله سرت
408,San Jose,US,75.99,broken clouds,37.3394,-121.895,The Westin San Jose
412,Kismayo,SO,76.3,broken clouds,-0.3582,42.5454,Agan-Hotel
417,Bac Lieu,VN,86.38,broken clouds,9.285,105.7244,Khách sạn Sài Gòn Bạc Liêu
420,Wallaceburg,CA,79.05,overcast clouds,42.593,-82.3885,Wallaceburg Inn
424,Haines Junction,CA,82.35,broken clouds,60.7522,-137.5108,Parkside Inn
425,Ust-Nera,RU,85.08,overcast clouds,64.5667,143.2,Hotel Ust-Nera
428,Quartucciu,IT,81.0,clear sky,39.2519,9.1794,Best Western Hotel Residence Italia
433,Acapulco,MX,82.22,overcast clouds,16.8634,-99.8901,HS Hotsson Smart Acapulco
437,Wilmington,US,79.0,few clouds,34.2257,-77.9447,"Hotel Ballast Wilmington, Tapestry Collection by Hilton"
442,Glenwood Springs,US,86.92,clear sky,39.5505,-107.3248,Glenwood Springs Cedar Lodge
444,Kiunga,PG,81.46,overcast clouds,-6.1219,141.2906,Airport Lodge Kiunga
445,Ardakan,IR,75.81,clear sky,32.31,54.0175,Ardakan Hotel
447,Padang,ID,80.65,overcast clouds,-0.9492,100.3543,Mercure Padang
450,Chandbali,IN,87.62,heavy intensity rain,20.7833,86.7667,Sabitri Bhavan
453,Mutis,CO,77.65,overcast clouds,6.2262,-77.4044,Paraiso Escondido
456,Ambon,ID,78.24,heavy intensity rain,-3.6954,128.1814,Swiss-Belhotel Ambon
459,Dicabisagan,PH,87.21,broken clouds,17.0818,122.4157,Nancy Montanes Bernardo
461,Olinda,BR,78.53,scattered clouds,-8.0089,-34.8553,Flat Quatro Rodas Olinda
466,Casay,PH,85.1,broken clouds,9.8204,123.5496,Blue Pot Family Resort
467,Opatija,HR,78.75,overcast clouds,45.3392,14.3083,Hotel Opatija
472,Chumphon,TH,75.61,overcast clouds,10.3333,98.8333,สกาน จ๋า.
473,Laiyang,CN,87.6,overcast clouds,36.9758,120.7136,莱阳恒银宾馆
474,Porto Walter,BR,75.04,few clouds,-8.2686,-72.7439,Hotel Silva
475,Zabaykalsk,RU,78.96,scattered clouds,49.6333,117.3167,Zheleznyy Mir
476,Awjilah,LY,77.04,clear sky,29.1081,21.2869,المنزل
477,Matara,LK,79.47,overcast clouds,5.9485,80.5353,Amaloh Boutique Resort
479,Palampur,IN,79.34,broken clouds,32.1167,76.5333,FLB Resorts Jerry's Jungle Huts
480,Leon Valley,US,89.65,clear sky,29.4952,-98.6186,Days Inn by Wyndham San Antonio Northwest/Seaworld
485,Brasileia,BR,78.08,broken clouds,-11.0161,-68.7481,Pousada Tobias
486,Lashio,MM,75.11,overcast clouds,22.9333,97.75,Hotel CF Lashio - Burmese Only
487,Cartagena,CO,82.02,light intensity drizzle,10.3997,-75.5144,Hotel Colombia Real - Cartagena
488,Pahrump,US,83.32,clear sky,36.2083,-115.9839,Best Western Pahrump Oasis
493,Juneau,US,82.4,broken clouds,58.3019,-134.4197,"Baranof Downtown, BW Signature Collection"
495,Fairbanks,US,83.61,smoke,64.8378,-147.7164,Westmark Fairbanks Hotel & Conference Center
501,Sarangani,PH,83.01,overcast clouds,5.4033,125.4636,JVL Inn and Cafeteria
505,Marsaxlokk,MT,78.08,clear sky,35.8419,14.5431,Water's Edge
508,Veseloyarsk,RU,77.43,overcast clouds,51.2836,81.1056,
511,Sabha,LY,78.46,clear sky,27.0377,14.4283,محطة ام الارانب -سبها مواصلات
515,Along,IN,87.62,broken clouds,28.1667,94.7667,Hotel West
516,Paredon,MX,80.91,overcast clouds,16.0333,-93.8667,Hotel Principal Paredon
517,Mayo,US,76.26,clear sky,38.8876,-76.5119,Resorts Resource Group International
520,Naze,JP,83.32,scattered clouds,28.3667,129.4833,Shishime Hotel
532,Huaihua,CN,87.26,scattered clouds,27.5494,109.9592,怀化天庆大酒店
536,Road Town,VG,82.44,few clouds,18.4167,-64.6167,"ZINGARA 76ft Catamaran, full crew-all included"
537,Pitimbu,BR,77.59,scattered clouds,-7.4706,-34.8086,Reserva do Abiaí
539,Deori Khas,IN,84.31,clear sky,23.4,79.0167,SAMARPAD COMPUTER DEORI
545,Middletown,US,81.16,clear sky,39.5151,-84.3983,Center of Hope for Women and Children
546,Oistins,BB,80.69,few clouds,13.0667,-59.5333,Butterfly Beach Hotel
548,Nalut,LY,79.2,clear sky,30.3333,10.85,
550,Progreso,MX,80.85,clear sky,21.2833,-89.6667,Playa Linda Hotel
551,Eydhafushi,MV,83.16,overcast clouds,5.1033,73.0708,Soneva Fushi
552,Shingu,JP,76.26,moderate rain,33.7333,135.9833,Shingu UI Hotel
554,Bouloupari,NC,84.11,overcast clouds,-21.8667,166.05,Oua-Ya Lodge
557,Filadelfia,US,77.25,clear sky,39.9523,-75.1638,"The Ritz-Carlton, Philadelphia"
561,Robertsport,LR,77.23,broken clouds,6.7533,-11.3686,Kwepunha Retreat
562,Ranau,MY,81.28,moderate rain,5.9538,116.6641,The Second Room
565,Tokur,RU,85.78,overcast clouds,53.1333,132.9,
566,Priiskovyy,RU,76.53,light rain,51.9333,116.6333,
568,Brenham,US,89.78,clear sky,30.1669,-96.3977,Hampton Inn & Suites Brenham
570,Nishihara,JP,87.85,scattered clouds,26.1842,127.7558,Minshuku Agaihama
571,Poya,NC,80.13,overcast clouds,-21.35,165.15,
578,Sunel,IN,87.71,broken clouds,24.3667,75.9667,Retorent
581,Auki,SB,85.82,scattered clouds,-8.7676,160.7034,Auki Motel
582,Inuvik,CA,88.56,smoke,68.3499,-133.7218,Nova Inn Inuvik
593,Potiskum,NG,76.62,overcast clouds,11.7091,11.0694,Tamir Hotel Ltd
594,Makhachkala,RU,77.02,clear sky,42.9764,47.5024,Argo
595,Tabas,IR,88.02,clear sky,33.5959,56.9244,شرکت معماری مهراز شایگان آراد
596,Atambua,ID,76.84,overcast clouds,-9.1061,124.8925,Kost Alfa Flat
602,Moerai,PF,75.6,broken clouds,-22.4333,-151.3333,Le Manotel
605,Loudi,CN,84.04,overcast clouds,27.7344,111.9944,Till Bright Hotel
606,Uglekamensk,RU,84.51,overcast clouds,43.2172,133.2303,
610,Sibolga,ID,82.65,overcast clouds,1.7427,98.7792,Hotel Syariah CN Darussalam
614,Xichang,CN,76.86,broken clouds,27.8964,102.2634,Xichang ibis Hotel
619,Yagodnoye,RU,84.76,overcast clouds,62.55,149.6667,Гостевой дом
623,Ixtapa,MX,78.71,overcast clouds,20.7,-105.2,hotel la terminal
625,Kallithea,GR,79.47,clear sky,37.95,23.7,Athens Atrium Hotel
627,Kirakira,SB,84.02,broken clouds,-10.4544,161.9205,SanBiz Lodge
630,Yamada,JP,80.6,overcast clouds,39.4667,141.95,Iroha-ya Inn
636,Karatsu,JP,82.29,overcast clouds,33.4425,129.9697,Niji no Matsubara Hotel
638,Komsomolskiy,UZ,79.52,clear sky,40.4272,71.7189,Ikathouse
640,Mana,GF,76.93,overcast clouds,5.6592,-53.7767,LE SAMANA
641,Bilma,NE,85.53,clear sky,18.6853,12.9164,Expeditions Ténére voyages
643,Zhaoqing,CN,83.82,overcast clouds,23.0512,112.4597,七星岩旅游度假区
645,Nehe,CN,85.01,broken clouds,48.4833,124.8333,Vladimir Homestay
647,Kailua,US,82.38,scattered clouds,21.4022,-157.7394,Sheffield House Bed & Breakfast
649,Neiafu,TO,75.88,broken clouds,-18.65,-173.9833,Mystic Sands Beachfront Accommodation
653,Marawi,PH,78.55,overcast clouds,7.9986,124.2928,Derogongan Residence
654,Uruzgan,AF,80.37,few clouds,32.8333,66.0,
656,Kulhudhuffushi,MV,82.69,broken clouds,6.6221,73.07,Haajy Guest House 1
658,Lamar,US,86.65,clear sky,33.6668,-95.5836,Kings Inn Paris TX
661,Zhaozhou,CN,82.38,light rain,45.6833,125.3167,East Hotel
662,Puerto Madero,MX,81.48,overcast clouds,14.7208,-92.4215,DEPARTAMENTOS LA ESTANCIA
666,Careiro Da Varzea,BR,79.41,broken clouds,-3.2003,-59.8119,POUSADA DA ALDENORA
667,Boa Vista,BR,80.58,scattered clouds,2.8197,-60.6733,Aipana Plaza Hotel
669,Mongo,TD,77.77,broken clouds,12.1844,18.693,Résidences du Programme FIDA
676,Jasper,US,85.14,few clouds,37.2001,-94.3502,Guest House Motel
677,Tripoli,LY,78.37,clear sky,32.8752,13.1875,Al Waddan Hotel
679,Mancio Lima,BR,75.13,scattered clouds,-7.6142,-72.8958,Motel Asas Do Desejo
687,Buchanan,LR,75.88,overcast clouds,5.8808,-10.0467,Kamaneahn Hotel Inc
689,Bokoro,TD,83.32,overcast clouds,12.3807,17.0568,
690,San Pedro,PH,86.36,moderate rain,14.35,121.0167,Palines Apartment and Guesthouse
693,Saint Anthony,US,80.38,clear sky,45.0205,-93.218,Holiday Inn Express Roseville-St. Paul
702,West Wendover,US,88.81,clear sky,40.7391,-114.0733,"Motel 6 Wendover, UT"
706,Virginia Beach,US,78.03,clear sky,36.8529,-75.978,Hilton Virginia Beach Oceanfront
707,Port Blair,IN,77.04,moderate rain,11.6667,92.75,"Welcomhotel By ITC Hotels, Bay Island, Port Blair"
708,Gunjur,GM,75.27,moderate rain,13.2019,-16.7339,Jallo Kurundingoto Eco Tourist Camp
710,Hamilton,US,81.21,clear sky,39.1834,-84.5333,Six Acres Bed & Breakfast
711,Thinadhoo,MV,82.02,scattered clouds,0.5333,72.9333,
716,Manuk Mangkaw,PH,83.86,overcast clouds,4.8,119.85,
717,Tadine,NC,77.36,overcast clouds,-21.55,167.8833,
718,Corralillo,CU,79.95,clear sky,22.9819,-80.5856,Hostal De Pedri
720,Riberalta,BO,77.18,few clouds,-10.9833,-66.1,Hotel Colonial
725,Samana,DO,78.37,broken clouds,19.2056,-69.3369,The Bannister - Hotel & Yacht Club
726,Wewak,PG,86.29,broken clouds,-3.5534,143.6268,In Wewak Boutique Hotel
727,Aquiraz,BR,77.09,scattered clouds,-3.9014,-38.3911,Pousada Rua Camurupim
729,Gat,IL,75.4,clear sky,31.61,34.7642,OlusHome
731,Linguere,SN,84.07,overcast clouds,15.3953,-15.1193,AYO Casablanca
740,Natchitoches,US,86.85,broken clouds,31.7668,-93.1335,Super 8 by Wyndham Natchitoches
745,Buraydah,SA,82.85,overcast clouds,26.326,43.975,Mövenpick Qassim
747,Tangzhai,CN,75.85,moderate rain,34.4328,116.5911,Huilong Business Hotel
748,Yumen,CN,85.96,clear sky,40.2833,97.2,
749,Kimbe,PG,86.7,light rain,-5.5502,150.1429,Kimbe Bay Hotel
750,Misratah,LY,79.03,clear sky,32.3754,15.0925,Almasa Hotel
751,Marsh Harbour,BS,81.63,clear sky,26.5412,-77.0636,Abaco Beach Resort
755,Mnogovershinnyy,RU,83.75,clear sky,53.9353,139.9242,Obshchezhitiye 14
758,Azare,NG,76.68,overcast clouds,11.6765,10.1948,Mallam Ayuba Compound
762,Kirksville,US,84.15,clear sky,40.1948,-92.5833,Budget Host-Village Inn
766,Bam,IR,87.28,broken clouds,29.106,58.357,Bam Tourist Hotel
772,Banda Aceh,ID,85.05,overcast clouds,5.5577,95.3222,OYO 884 Rumoh PMI Hotel
773,Russellville,US,87.06,broken clouds,35.2784,-93.1338,Hampton Inn Russellville
775,Nara,JP,79.97,overcast clouds,34.6851,135.8049,Guesthouse Nara Komachi
776,Sirjan,IR,81.7,overcast clouds,29.452,55.6814,MAPNA Building
778,Avera,US,78.55,broken clouds,33.194,-82.5271,
782,Nioro,GM,78.71,overcast clouds,13.35,-15.75,
783,Jalu,LY,76.91,clear sky,29.0331,21.5482,صاحبة الفخامة
785,Sampit,ID,88.23,scattered clouds,-2.5333,112.95,Aquarius Boutique Hotel Sampit
787,Nieuw Amsterdam,SR,77.16,light rain,5.8833,-55.0833,Hotel Stardust
792,Am Timan,TD,76.37,overcast clouds,11.0297,20.2827,Palais du chef Canton Salamt
793,Yatou,CN,83.3,broken clouds,37.15,122.3833,GreenTree Hotel Rongcheng Bus Station
795,Fort Myers Beach,US,86.02,few clouds,26.452,-81.9481,Lani Kai Island Resort
796,Point Fortin,TT,76.89,overcast clouds,10.1833,-61.6833,Jus Les' Suites
797,Cotonou,BJ,78.78,broken clouds,6.3654,2.4183,Novotel Cotonou Orisha
800,Owosso,US,79.52,broken clouds,42.9978,-84.1766,Comstock Inn and Conference Center
801,Karaton,ID,85.86,scattered clouds,-6.3424,106.1045,Parkir Mobil Wisata CAS Water Park
805,Havelock,US,80.58,clear sky,34.8791,-76.9013,Sherwood Motel
806,Ajdabiya,LY,75.38,clear sky,30.7554,20.2263,Almadina Hotel
807,Key West,US,84.99,few clouds,24.5557,-81.7826,Fairfield Inn & Suites by Marriott Key West
808,Sokoni,TZ,75.2,light rain,-6.4333,39.55,Ujamaa Beach Resort
811,Venice,US,85.98,scattered clouds,27.0998,-82.4543,A Beach Retreat On Casey Key
813,La Palma,US,78.31,clear sky,33.8464,-118.0467,La Quinta Inn & Suites by Wyndham Buena Park
822,Baruun-Urt,MN,75.7,overcast clouds,46.6806,113.2792,Ахмадын амралт сувилал
823,Shenyang,CN,80.62,overcast clouds,41.7922,123.4328,DoubleTree by Hilton Hotel Shenyang
825,Tual,ID,79.81,overcast clouds,-5.6667,132.75,Grand Vilia Hotel
828,Manokwari,ID,83.59,broken clouds,-0.8667,134.0833,Swiss Belhotel Manokwari
829,Prabumulih,ID,85.12,broken clouds,-3.45,104.25,OYO 2722 Lemon Residence Prabumulih
831,Dalbandin,PK,87.6,overcast clouds,28.8947,64.4101,Sanjrani House
833,Morgan City,US,81.0,overcast clouds,29.6994,-91.2068,Hampton Inn & Suites Morgan City
834,Xifeng,CN,80.64,scattered clouds,42.7372,124.7222,Home Inn Hotel
841,Ha Giang,VN,81.43,overcast clouds,22.8333,104.9833,Truong Xuan Resort
843,Kalmunai,LK,85.77,overcast clouds,7.4167,81.8167,VS Villa
845,Nador,MA,78.87,clear sky,35.174,-2.9287,Hôtel La Giralda
848,Kahului,US,76.96,broken clouds,20.8947,-156.47,Maui Seaside Hotel
849,Umm Kaddadah,SD,78.53,broken clouds,13.6017,26.6876,
856,Wanning,CN,88.38,overcast clouds,18.8003,110.3967,Paradise Hotel
857,Gizo,SB,84.88,overcast clouds,-8.103,156.8419,Imagination Island
860,Griffith,US,77.9,clear sky,41.5284,-87.4237,Apartment above Depot Bar
868,Shenjiamen,CN,81.28,overcast clouds,29.9576,122.298,Jinjiang Inn Zhoushan Putuo Shenjiamen
870,Karangampel,ID,84.94,broken clouds,-6.4622,108.4519,ROOFTOP WAG ALL
873,Ingham,US,78.75,light rain,42.6,-84.3833,Sunset Mobile Home Park
875,Bud,US,80.87,overcast clouds,39.447,-86.1758,Ted McQuinn Trust
876,Selma,US,86.23,clear sky,36.5708,-119.6121,"Holiday Inn Selma-Swancourt, an IHG Hotel"
877,Pangkalanbuun,ID,88.72,broken clouds,-2.6833,111.6167,Grand Kecubung Hotel
878,Panguna,PG,83.77,broken clouds,-6.3164,155.4848,
884,Lakatoro,VU,81.16,overcast clouds,-16.0999,167.4164,Lakatoro Palm Lodge
886,Xinmin,CN,81.45,overcast clouds,41.9908,122.8253,Agricultural Machinery Hotel
887,Diapaga,BF,77.2,light rain,12.0708,1.7889,Hôtel GACILIE
889,Oranjestad,AW,80.55,broken clouds,12.524,-70.027,Divi Village Golf & Beach Resort
894,Pakxan,LA,80.46,light rain,18.3778,103.6601,Kong Kham Pheng Guesthouse
905,Chitrakonda,IN,78.51,overcast clouds,18.1167,82.0833,Dantunaguda
910,Kushima,JP,82.31,moderate rain,31.4583,131.2333,Hanaoka
911,Sakakah,SA,81.97,clear sky,29.9697,40.2064,Fakhamat Al Orjoana Apartment
915,Mahon,ES,75.76,broken clouds,39.8885,4.2658,ARTIEM Capri
918,Dahegam,IN,83.97,overcast clouds,23.1667,72.8167,OYO 3231 Malhaar Resort
919,Tomatlan,MX,78.03,overcast clouds,19.9333,-105.25,El Salvial
922,La Cruz,MX,82.27,scattered clouds,23.9167,-106.9,Jesús angel
926,Grand-Lahou,CI,75.02,light rain,5.1367,-5.0242,Hotel Beatitude de Grand Lahou
927,Banjar,ID,86.85,scattered clouds,-8.19,114.9675,The Hamsa Resort
932,Fuerte,PH,86.11,overcast clouds,17.5381,120.3644,Giordion Inn
934,Miri,MY,82.9,overcast clouds,4.4148,114.0089,"Mega Hotel, Miri"
935,Tabou,CI,75.74,overcast clouds,4.423,-7.3528,hotêl doufoulougou
936,Alihe,CN,85.66,light rain,50.5667,123.7167,Alihe Forestry Hotel
941,Jiujiang,CN,78.19,moderate rain,29.7333,115.9833,Tianhai Fashion Theme Hotel
942,Merauke,ID,78.78,overcast clouds,-8.4667,140.3333,
943,Danville,US,76.77,overcast clouds,36.586,-79.395,"Holiday Inn Express Danville, an IHG Hotel"
946,Acarau,BR,75.33,scattered clouds,-2.8856,-40.12,castelo pizzaria
950,Ojinaga,MX,84.42,clear sky,29.5667,-104.4167,Suites Las Palmas
952,Jiwani,PK,83.05,light rain,25.05,61.7417,Hamza hotel jiwani
953,Callaguip,PH,84.85,overcast clouds,18.0714,120.4867,Pangil Beach Resort
955,Riyadh,SA,86.59,clear sky,24.6877,46.7219,"InterContinental Riyadh, an IHG Hotel"
957,Doha,QA,85.98,haze,25.2867,51.5333,Doha Marriott Hotel
959,Veraval,IN,81.9,light rain,20.9,70.3667,Lords Inn Somnath
964,Dublin,US,76.06,scattered clouds,37.7021,-121.9358,Larkspur Landing Pleasanton
966,Suclayin,PH,87.58,moderate rain,15.7568,121.5503,Costa Pacifica
968,Baijiantan,CN,80.13,overcast clouds,45.6333,85.1833,
970,Valentin Gomez Farias,MX,76.95,broken clouds,28.2167,-106.5833,
972,Lae,PG,85.19,overcast clouds,-6.7221,146.9847,Phils Hotel
975,Khash,IR,81.01,overcast clouds,28.2211,61.2158,خوابگاه آبجی محدثه
977,Tabuk,PH,87.17,overcast clouds,17.4189,121.4443,Golden Berries Hotel and Convention
981,Pokhara,NP,80.76,scattered clouds,28.2333,83.9833,OYO 170 Hotel View Point
989,Poyarkovo,RU,83.19,light rain,49.6,128.6833,Gostinitsa
995,Cobija,BO,77.77,broken clouds,-11.0267,-68.7692,Hotel Obelisco
998,Zyryanka,RU,83.59,broken clouds,65.75,150.85,
1001,Minab,IR,87.8,overcast clouds,27.1467,57.0801,Bam campground
1002,La Paz Centro,NI,77.92,overcast clouds,12.34,-86.6753,Quinta Momotombo
1003,Payson,US,80.1,clear sky,40.0444,-111.7321,Quality Inn Payson I-15
1004,Ranong,TH,79.92,overcast clouds,9.9658,98.6348,Numsai Khaosuay Resort Ranong
1007,Ugoofaaru,MV,83.26,overcast clouds,5.6667,73.0,Ungoofaaru Inn
1008,Edd,ER,87.28,overcast clouds,13.9297,41.6925,
1010,Tahlequah,US,86.22,haze,35.9154,-94.97,Oak Hill Inn and Suites
1013,Lubao,PH,88.77,overcast clouds,14.9167,120.55,Hacienda Gracia
1014,Kassala,SD,76.48,broken clouds,15.451,36.4,Amassi Hotel Gash
1018,Yining,CN,78.12,overcast clouds,29.0361,114.5636,Xiushui Hotel
1021,Murwara,IN,87.01,few clouds,23.85,80.4,HOTEL BRIJWASI ROYAL
1022,Tavares,US,82.99,scattered clouds,28.8042,-81.7256,"Holiday Inn Express & Suites Tavares - Leesburg, an IHG Hotel"
1024,Kattivakkam,IN,86.09,overcast clouds,13.2167,80.3167,Euronova Freezer
1025,Talaya,RU,78.46,broken clouds,61.3833,152.75,
1026,Handan,CN,85.62,overcast clouds,36.6006,114.4678,Jin Jiang Inn - Handan China South Street Inn
1034,College,US,86.0,broken clouds,64.8569,-147.8028,Pike's Waterfront Lodge
1035,Fare,PF,79.12,few clouds,-16.7,-151.0167,Maitai Lapita Village Huahine
1036,Funadhoo,MV,82.96,broken clouds,6.15,73.2667,Dhaffalhu Tourist Lodge
1039,Lanzhou,CN,78.91,clear sky,36.0564,103.7922,Lanzhou Amdo Xiangbala Hotel
1041,Coahuayana,MX,78.28,overcast clouds,18.7333,-103.6833,El rranchito michuacan de ocampos
1046,Trinidad,BO,76.33,overcast clouds,-14.8333,-64.9,Hotel Piesta
1048,Altayskoye,RU,76.48,scattered clouds,51.9533,85.3325,ЭКО-ТРЕВЕЛ АЛТАЙ
1051,Kandi,BJ,75.02,overcast clouds,11.1342,2.9386,Hébergement de la Poste
1057,Hirara,JP,83.82,scattered clouds,24.8,125.2833,Hotel Atoll Emerald Miyakojima
1063,Bull Savanna,JM,76.17,scattered clouds,17.8868,-77.5902,Big Red's
1064,Ariquemes,BR,76.91,few clouds,-9.9133,-63.0408,Hotel Sol Nascente - Ariquemes - RO
1067,Fort Dodge,US,83.82,clear sky,42.4975,-94.168,"Country Inn & Suites by Radisson, Fort Dodge, IA"
1068,Srednekolymsk,RU,79.56,overcast clouds,67.45,153.6833,
1072,Bakel,SN,83.97,overcast clouds,14.905,-12.4568,Ablaye Diallo Bakel
1074,Probolinggo,ID,86.38,overcast clouds,-7.7543,113.2159,Rumah Anggrek Syariah 1 RedPartner
1076,Tyrma,RU,84.67,few clouds,50.0833,132.1667,
1082,Safford,US,85.12,clear sky,32.834,-109.7076,SpringHill Suites by Marriott Thatcher
1083,Cayenne,GF,80.1,clear sky,4.9333,-52.3333,Hôtel Le Dronmi
1087,Bartica,GY,77.32,overcast clouds,6.4,-58.6167,Sloth Island Nature Resort
1090,Tianpeng,CN,88.77,clear sky,30.9866,103.9393,Shuangliu Love Home Business Hotel
1091,Lazaro Cardenas,MX,77.63,overcast clouds,17.9583,-102.2,HOTEL QUINTA ANTIGUA
1094,Sabang,ID,83.88,overcast clouds,5.8933,95.3214,Hotel Citra
1095,Balaipungut,ID,78.28,light rain,1.05,101.2833,
1097,Panaba,MX,79.45,clear sky,21.2833,-88.2667,Hotel Don Fernando
1098,Oriximina,BR,76.68,broken clouds,-1.7656,-55.8661,Pousada Tia Amélia
1100,Barabai,ID,89.08,few clouds,-2.5833,115.3833,HOTEL BOURAQ INDAH PERMAI
1101,Saint Marys,US,83.05,clear sky,30.7305,-81.5465,Spencer House Inn by Brham
1103,Iberia,US,84.27,clear sky,29.9502,-91.7507,back to back rv park
1105,Namtsy,RU,86.45,few clouds,62.7161,129.6658,"""Эңсиэли Киин"""
1106,Salinopolis,BR,77.05,clear sky,-0.6136,-47.3561,Salinas Park Resort Maçarico AP101
1109,Chabahar,IR,84.97,overcast clouds,25.2919,60.643,هتل گدروشیا
1113,Pishin,PK,82.09,broken clouds,30.5803,66.9961,City Hotel Pishin
1116,Katobu,ID,86.14,scattered clouds,-4.9408,122.5276,La Ode Husein
1117,Phonhong,LA,82.09,moderate rain,18.5007,102.4166,Manyvong Guest House
1118,Gorontalo,ID,80.91,overcast clouds,0.5412,123.0595,Maqna Hotel by Prasanthi
1127,Kencong,ID,83.8,broken clouds,-8.2833,113.3667,GUBUK SUGIANTO
1130,Thoen,TH,86.74,overcast clouds,17.6129,99.2161,บ้านห้องนอน
1134,Matay,EG,80.38,clear sky,28.419,30.7792,Nag Aespen
1137,Khandyga,RU,89.4,scattered clouds,62.6667,135.6,Apel'sin
1138,Talalora,PH,86.02,scattered clouds,11.5293,124.8362,"Casa de Burgos_Western Samar, Philippines"
1140,Muncar,ID,82.36,overcast clouds,-8.4333,114.3333,Zaky Homestay
1141,Jhargram,IN,88.11,few clouds,22.45,86.9833,Sarada Hotel
1143,Maningrida,AU,79.09,scattered clouds,-12.0667,134.2667,Dhukurrdji Lodge
1148,Sangar,RU,75.81,broken clouds,63.9242,127.4739,
1149,Thakurgaon,BD,89.85,clear sky,26.0333,88.4667,Chowdhury Khokon Fisheries Head Office
1150,Vanimo,PG,84.18,light rain,-2.6741,141.3028,Vahmoneh Lodge Vanimo
1151,Adre,TD,77.02,broken clouds,13.4667,22.2,
1154,Myrtle Beach,US,80.04,broken clouds,33.6891,-78.8867,Bay View Resort Myrtle Beach
1155,Miyazu,JP,75.15,overcast clouds,35.5333,135.1833,Seikiro
1156,Fujin,CN,83.8,few clouds,47.26,132.0322,Xilong Hotel Fujin Shop
1163,Bangkalan,ID,84.15,overcast clouds,-7.0455,112.7351,SPOT ON 2591 Griya Demangan Syariah
1165,Fayaoue,NC,77.65,broken clouds,-20.65,166.5333,Chez Dydyce Guesthouse
1168,Agadez,NE,85.08,clear sky,19.75,10.25,
1169,Elizabeth City,US,77.02,broken clouds,36.2946,-76.2511,Hampton Inn Elizabeth City
1170,Montes Altos,BR,78.13,overcast clouds,-5.8333,-47.0667,Hotel e Restaurante Manaaim
1171,Namie,JP,87.55,light rain,37.4833,141.0,いこいの村なみえ
1172,Ahuimanu,US,82.11,overcast clouds,21.4447,-157.8378,Paradise Bay Resort
1173,Bushehr,IR,89.71,broken clouds,28.9684,50.8385,Yas Hotel
1175,Portland,US,76.55,few clouds,45.5234,-122.6762,Embassy Suites by Hilton Portland Downtown
1179,Sena Madureira,BR,76.55,broken clouds,-9.0656,-68.6569,Hotel Central
1180,Ashland,US,76.82,overcast clouds,40.8167,-82.2665,SureStay
1183,Dumai,ID,85.95,overcast clouds,1.6833,101.45,Grand Zuri Dumai
1185,Sabancuy,MX,81.07,overcast clouds,18.9667,-91.1833,pulpo
1187,Lafayette,US,84.33,clear sky,30.2335,-92.0668,"Drury Inn & Suites Lafayette, LA"
1188,Bantogon,PH,83.37,overcast clouds,6.5333,124.0333,Kalamansig Greenhome
1189,Lalmohan,BD,84.83,broken clouds,22.3384,90.7419,Arifur Rahman Miraj
1191,Xacmaz,AZ,76.64,clear sky,41.4635,48.806,Ulduz Hotel
1192,Araceli,PH,81.5,moderate rain,10.5529,119.9913,JBryan Traveler's Inn
1194,Daru,PG,79.88,broken clouds,-9.0763,143.2092,Daru Lodge
1196,Tessalit,ML,87.39,clear sky,20.1986,1.0114,
1198,Babu,CN,85.03,overcast clouds,24.4167,111.5167,IU Hotel Hezhou Bus Terminal
1200,Suez,EG,77.94,clear sky,29.9737,32.5263,Green House
1201,Sola,VU,80.17,scattered clouds,-13.8833,167.55,Leumerus Bungalows
1202,Harper,LR,76.3,overcast clouds,4.375,-7.7169,Screensaver
1204,Areia Branca,BR,75.06,few clouds,-4.9561,-37.1369,Areia Branca Apart Hotel
1205,Puerto Carreno,CO,75.85,heavy intensity rain,6.189,-67.4859,Casa Hotel Victoria
1206,Whitehorse,CA,86.02,thunderstorm,60.7161,-135.0538,The Sternwheeler Hotel & Conference Centre
1207,Dali,CN,75.92,broken clouds,25.7,100.1833,Dali Travelling With Hostel
1208,Bourail,NC,78.96,overcast clouds,-21.5667,165.4833,Motel Allamanda
1209,Artyom,AZ,78.94,clear sky,40.4723,50.333,Pir hos
1210,Qianguo,CN,82.2,broken clouds,45.1171,124.8568,Guo'er Luosi Hotel
1211,Puri,IN,81.12,moderate rain,19.8,85.85,OYO 1577 Hotel Shree Hari Grand
1212,Jining,CN,76.53,light rain,35.405,116.5814,Yunhe Star Hotel
1218,La Asuncion,VE,78.06,broken clouds,11.0333,-63.8628,Colinas de Matasiete
1224,Duki,PK,84.9,scattered clouds,30.1541,68.5728,ماسٹر رشید مرحوم
1226,Catuday,PH,83.19,broken clouds,16.2923,119.8062,Benjie's Kubo & Cottages
1227,Guane,CU,78.84,scattered clouds,22.2025,-84.0875,base de Campismo LosPortales de Guane
1229,Joshimath,IN,79.07,broken clouds,30.5667,79.5667,Shivalik Camps & Resort
1230,Ismailia,EG,75.47,clear sky,30.6043,32.2723,Mercure Ismailia Forsan Island Hotel
1232,Jibuti,DJ,84.61,scattered clouds,11.5,42.5,Orchid Main Camp Goubet
1233,Manoel Urbano,BR,75.22,scattered clouds,-8.8389,-69.2597,Baixada Beira Rio
1236,Russell,US,80.2,broken clouds,32.3502,-85.1999,Macs
1237,Ngawi,ID,84.97,broken clouds,-7.4038,111.4461,"""G.W.A. KOST"" NGAWI (dpn Klurahan KETANGGI)"
1240,Giporlos,PH,83.1,overcast clouds,11.12,125.4494,JR's Pension House
1245,Tlacojalpan,MX,75.97,overcast clouds,18.2333,-95.95,Hotel posada santa Mercedes
1246,Belaya Gora,RU,80.92,light rain,68.5333,146.4167,
1248,Fuerte Olimpo,PY,75.45,overcast clouds,-21.0415,-57.8738,Hospedaje DAMI
1250,Gibara,CU,76.32,overcast clouds,21.1097,-76.1317,Sol y Mar
1251,Gasa,PS,76.75,clear sky,31.5,34.4667,رابطة الفنانين الفلسطينيين
1254,Qarqin,AF,81.93,clear sky,37.4185,66.0436,
1258,Xiangxiang,CN,82.15,overcast clouds,27.7333,112.5333,Huatai International Hotel
1259,Waingapu,ID,81.82,broken clouds,-9.6567,120.2641,Pondok Wisata Elim
1260,Imeni Poliny Osipenko,RU,85.32,clear sky,52.4201,136.4853,Yubileynaya
1261,Bonthe,SL,75.99,broken clouds,7.5264,-12.505,Bonthe Holiday Village
1263,Kidal,ML,89.6,clear sky,18.4411,1.4078,
1265,Solnechnyy,RU,83.21,clear sky,50.7214,136.6319,Hotel complex Pastoral
1268,Nagapattinam,IN,84.13,overcast clouds,10.7667,79.8333,Sathya Lodge
1271,Chiang Klang,TH,82.89,overcast clouds,19.2938,100.8617,Sangthong Resort
1273,Tahoua,NE,85.37,broken clouds,14.8888,5.2692,Bungalows Guesthouse
1276,San Lorenzo,PY,76.14,clear sky,-25.3333,-57.5333,Canarias Hotel
1279,Sosua,DO,79.23,scattered clouds,19.7667,-70.5167,Piergiorgio Palace Hotel
1282,Termoli,IT,78.78,clear sky,41.9888,14.9895,Hotel Mistral
1283,Aripuana,BR,75.06,scattered clouds,-9.1667,-60.6333,
1288,Srivardhan,IN,79.63,overcast clouds,18.0333,73.0167,Savli Resort/Hotel - Shrivardhan
1290,Asmar,AF,84.94,overcast clouds,35.0333,71.3581,COP Monti
1291,Kieta,PG,85.17,overcast clouds,-6.2167,155.6333,Uruna Bay Retreat
1293,Amarante Do Maranhao,BR,76.91,overcast clouds,-5.5667,-46.7422,Hotéis Caçulinha
1294,Hays,US,89.15,clear sky,30.0502,-98.0336,Sinya on Lone Man Creek
1295,Nerchinskiy Zavod,RU,78.57,overcast clouds,51.3088,119.61,Gostinitsa
1299,Trat,TH,82.9,overcast clouds,12.5,102.5,สวนหนิง-อัศ
1305,Pauini,BR,81.75,overcast clouds,-7.7136,-66.9764,Casa do Kiwliks
1306,Mitsamiouli,KM,75.04,clear sky,-11.3847,43.2844,Foyer ADM
1307,Barstow,US,88.79,clear sky,34.8986,-117.0228,"Motel 6 Barstow, CA"
1314,Cabo Rojo,PR,79.68,overcast clouds,18.0866,-67.1457,Hotel Perichi's
1315,Sitges,ES,78.01,scattered clouds,41.2351,1.8119,URH Sitges Playa
1316,Benghazi,LY,77.95,clear sky,32.1167,20.0667,Tibesti Hotel
1317,Winnemucca,US,75.25,clear sky,40.973,-117.7357,Winners Inn Casino
1319,Dharchula,IN,76.53,overcast clouds,29.85,80.5333,Mahara Hotel
1320,Goundam,ML,87.24,scattered clouds,16.4145,-3.6708,
1329,Keokuk,US,86.52,clear sky,40.3973,-91.3849,Hampton Inn Keokuk
1332,Darab,IR,89.71,overcast clouds,28.7519,54.5444,Naghshe shapoor Hotel
1333,Bafoulabe,ML,78.28,light rain,13.8065,-10.8321,Logement du Chargé SIS Abdoul Karim Konaté
1340,Pospelikha,RU,76.15,broken clouds,51.95,81.7667,
1341,Khandbari,NP,79.81,broken clouds,27.3747,87.2039,Sainik Hotel And Lodge
1343,Basco,PH,84.15,overcast clouds,20.4487,121.9702,Nathaniel's Lodge
1346,Choya,RU,75.51,broken clouds,52.0108,86.5467,
1348,Itupiranga,BR,75.52,overcast clouds,-5.1347,-49.3267,Hotel Panorama
1350,Bhatkal,IN,77.49,overcast clouds,13.9667,74.5667,Nilawar Palace
1351,Nabire,ID,86.04,overcast clouds,-3.3667,135.4833,Hotel Nusantara I
1364,Dalianwan,CN,80.64,mist,39.0286,121.695,Huanghai Hotel
1367,Palasbari,IN,87.85,mist,26.1361,91.5486,Manash Pratim Kalita
1368,Puerto Cabezas,NI,77.86,overcast clouds,14.0351,-83.3888,Cabaña Caribe
1369,Madera,US,84.56,clear sky,37.1666,-119.8343,
1371,Buala,SB,85.1,overcast clouds,-8.145,159.5921,Maringe Lagoon Lodge
1374,Filingue,NE,86.13,broken clouds,14.3521,3.3168,
1377,Xiuyan,CN,82.74,scattered clouds,40.2928,123.2744,Helin Holiday Hotel
1378,Ravar,IR,77.86,overcast clouds,31.2656,56.8055,computertik
1379,Huilong,CN,82.74,broken clouds,31.8111,121.655,Hilton Garden Inn Qidong
1381,Lao Cai,VN,89.4,overcast clouds,22.4833,103.95,Legend Hotel
1385,Mogoytuy,RU,76.24,light rain,51.2833,114.9167,Gostinitsa
1388,Jeremie,HT,80.35,broken clouds,18.65,-74.1167,Auberge’Inn
1393,Bhojudih,IN,89.08,few clouds,23.6333,86.45,Alumni House
1399,Morvi,IN,84.42,overcast clouds,22.8167,70.8333,RE:GEN:TA Inn Morbi
1400,Mountain Home,US,78.28,clear sky,43.133,-115.6912,Mountain Home Inn
1401,Santo Domingo,DO,79.03,few clouds,18.5001,-69.9886,Cabañas City Heart
1402,Dickinson,US,86.09,clear sky,29.4608,-95.0513,Hampton Inn & Suites Houston/League City
1405,Samdari,IN,89.85,broken clouds,25.8167,72.5833,Karnoba Ki Dhani
1408,Seoul,KR,88.99,overcast clouds,37.5683,126.9778,롯데호텔 서울
1412,Genhe,CN,85.93,overcast clouds,50.7833,121.5167,Companionship Hotel
1419,Gumla,IN,81.3,overcast clouds,23.05,84.55,Hotel Bindesh - Chulhani - Best Hotel and Restaurant in Gumla
1422,Salou,ES,77.95,light rain,41.0766,1.1416,Hotel Santa Monica Playa
1427,Dakar,SN,77.88,light rain,14.6937,-17.4441,Novotel Dakar
1428,Rosetta,EG,75.78,clear sky,31.4044,30.4164,Green Valley
1429,Mulege,MX,86.94,clear sky,26.8833,-111.9833,Casa Granada
1431,Khor,RU,80.46,broken clouds,47.8861,134.9464,Gostinitsa Deksi
1439,Xinzhou,CN,82.98,scattered clouds,38.4092,112.7333,Shell Hotel - Xinzhou
1440,Pingliang,CN,81.1,broken clouds,35.5392,106.6861,North Gate Hostel
1441,Brookings,US,79.05,clear sky,44.3114,-96.7984,"Holiday Inn Express & Suites Brookings, an IHG Hotel"
1445,Santa Rosa,PH,89.11,heavy intensity rain,14.3122,121.1114,Erlyn’s Sta Rosa City Home
1447,Wuxue,CN,79.11,overcast clouds,29.8506,115.5525,Wuxue Station Hostel
1450,Kitakata,JP,89.17,overcast clouds,37.65,139.8667,いろり古民家の宿 志ぐれ亭
1451,South River,US,76.89,overcast clouds,40.4465,-74.386,"Holiday Inn Express & Suites Tower Center New Brunswick, an IHG Hotel"
1452,Aldan,RU,85.24,few clouds,58.6031,125.3894,Aldan Guest House
1453,San Andres,CO,82.42,overcast clouds,12.5847,-81.7006,Hotel Arena Blanca
1454,Paracuru,BR,75.11,broken clouds,-3.41,-39.0306,Hotel Vento Brasil
1463,Shiogama,JP,78.78,overcast clouds,38.3167,141.0333,Smile Hotel Shiogama
1464,Nhulunbuy,AU,75.81,scattered clouds,-12.2333,136.7667,East Arnhem Real Estate
1465,Laguna De Perlas,NI,77.92,overcast clouds,12.3429,-83.6712,Hotel Best View
1466,Natal,BR,75.42,broken clouds,-5.795,-35.2094,Villa Park Hotel | Natal
1469,Acajutla,SV,79.32,overcast clouds,13.5928,-89.8275,Laureles
1473,Conakry,GN,77.04,moderate rain,9.538,-13.6773,Riviera Royal Hotel
1474,Sarangarh,IN,82.94,broken clouds,21.6,83.0833,Svidha kendra
1477,Ratnagiri,IN,79.56,heavy intensity rain,16.9833,73.3,Hotel Landmark
1478,Tigzirt,DZ,80.44,clear sky,36.8886,4.1198,Bloc D tazoumbirt (amar)
1481,Grajau,BR,78.33,overcast clouds,-5.8194,-46.1386,Hotel Confiança
1482,Sinegorye,RU,81.97,broken clouds,62.0788,150.477,
1484,Lagunas,PE,76.08,overcast clouds,-5.2269,-75.6753,Hospedaje Eco
1487,Bureya,RU,82.31,scattered clouds,49.8133,129.8131,Гостиница Бурея
1490,Saint-Georges,GD,78.48,few clouds,12.0564,-61.7485,Radisson Grenada Beach Resort
1491,San Francisco Del Mar,MX,81.05,overcast clouds,16.2333,-94.65,
1492,Wajima,JP,88.48,broken clouds,37.4,136.9,Wajiima Onsen Yashio
1494,Marion,US,84.52,scattered clouds,39.7684,-86.1555,Hilton Garden Inn Indianapolis Downtown
1496,Sembakung,ID,88.72,overcast clouds,3.8167,117.25,
1497,Santa Monica,US,77.54,clear sky,34.0195,-118.4912,Hotel Shangri-La
1509,Samarinda,ID,88.07,overcast clouds,-0.5,117.15,ASTON Samarinda Hotel & Convention Center
1513,Galveston,US,85.96,clear sky,29.3669,-94.9669,Crystal Suites
1516,Kohima,IN,75.97,broken clouds,25.6667,94.1167,The Homestay
1522,Gazojak,TM,75.81,clear sky,41.1875,61.4036,
1523,Tondano,ID,75.29,overcast clouds,1.3038,124.9112,Villa Bella
1524,Kupang,ID,80.29,overcast clouds,-10.1667,123.5833,Hotel On The Rock by Prasanthi
1532,Shenzhen,CN,87.08,moderate rain,22.5455,114.0683,Grand Skylight
1533,Jinchang,CN,83.88,clear sky,38.4953,102.1739,Mingshihui Jinchang International Hotel
1537,Mingguang,CN,86.45,overcast clouds,32.7802,117.9638,Yonghao Hotel
1538,Mecca,SA,83.59,broken clouds,21.4267,39.8261,"Makkah Clock Royal Tower, A Fairmont Hotel"
1541,Lufilufi,WS,85.78,light rain,-13.8745,-171.5986,Leuaina Beach Resort and Spa
1543,Meadow Lake,US,76.66,overcast clouds,34.8014,-106.5436,TumbleWeed RV Park
1546,Iralaya,HN,79.3,overcast clouds,15.0,-83.2333,Iglesia morava renovada
1548,Manggar,ID,84.52,overcast clouds,-2.8833,108.2667,Guest Hotel
1550,Manzhouli,CN,79.72,scattered clouds,49.6,117.4333,Angala International Youth Hostel
1551,Celestun,MX,80.82,broken clouds,20.8667,-90.4,Posada Lilia
1552,Dhidhdhoo,MV,82.6,broken clouds,6.8833,73.1,Dhidhoo beach
1555,Tortoli,IT,79.43,clear sky,39.9256,9.6572,Hotel La Bitta
1558,Miaga,PH,84.6,overcast clouds,12.2376,123.8167,Magcaraguit Resort
1561,Mae Sai,TH,76.8,overcast clouds,20.4335,99.8762,Piyaporn Hill Paradise Hotel
1569,Hede,CN,89.11,broken clouds,33.7681,120.2517,Vienna 3 Best Hotel Sheyang Jiefang Rd
1570,Sanary-Sur-Mer,FR,77.88,clear sky,43.1178,5.8001,Résidence Pierre et Vacances Les Rivages de Coudoulière
1571,Adana,TR,75.22,scattered clouds,36.985,35.2881,ibis Adana
1573,Ko Samui,TH,87.71,few clouds,9.5357,99.9357,The Passage
1576,Bairiki,KI,86.0,scattered clouds,1.3292,172.9752,Tarawa Boutique Hotel
1579,Jatibarang,ID,85.5,broken clouds,-6.4747,108.3153,Adi Sederhana Hotel
1581,Bajil,YE,89.69,few clouds,15.0584,43.2851,فندق حضرموت
1582,Tarakan,ID,85.5,light rain,3.3,117.6333,RedDoorz Syariah near Taman Berlabuh Tarakan
1587,Tamiahua,MX,80.22,clear sky,21.2667,-97.45,Mission Of The Sun Hotel
1591,Sungaipenuh,ID,77.41,overcast clouds,-2.0833,101.3833,Penginapan Citra Alam
1593,Gao,ML,86.02,scattered clouds,16.6362,1.637,
1603,Douglas,US,87.67,clear sky,41.3,-96.167,Hilton Garden Inn Omaha West
1605,Siniscola,IT,80.15,clear sky,40.5719,9.6922,Hotel Sa Tanca E Bore
1610,Naifaru,MV,83.14,light rain,5.4444,73.3657,Naifaru Residence Guest House
1615,Yangmei,CN,80.24,overcast clouds,24.1023,112.5618,
1626,Nago,JP,88.65,scattered clouds,26.5881,127.9761,Hotel Yugaf Inn Okinawa
1629,Wanxian,CN,89.83,clear sky,30.8039,108.3897,7Days Inn Chongqing Shiqiaopu
1632,Tanout,NE,83.8,broken clouds,14.9709,8.8879,
1633,Rodeo,US,75.33,clear sky,38.033,-122.2669,Captain's Cottage
1635,Chateaubelair,VC,78.78,broken clouds,13.2833,-61.25,Richmond Vale Diving & Hiking Center
1640,Sabya,SA,89.22,clear sky,17.1495,42.6254,Aseel Hotel Apartment
1643,Fuling,CN,89.04,clear sky,29.7022,107.3919,Yingbin Hostel
1644,Mae Sot,TH,85.42,broken clouds,16.7167,98.5667,Suan Darb Porn Resort (บ้านสวนดาบพรรีสอร์ท)
1648,Aswan,EG,85.98,clear sky,24.0934,32.907,Nuba Nile
1651,Mahibadhoo,MV,83.08,overcast clouds,3.7833,72.9667,Omadhoo Inn
1652,Clayton,US,81.45,broken clouds,33.5335,-84.3666,Royal Inn
1653,Gobo,JP,76.23,light rain,33.8833,135.15,Kotobuki Inn
1654,Uthai Thani,TH,88.95,overcast clouds,15.3833,99.55,เด็กชายพุฒิพงศ์ แจ่มจันทร์
1664,Bhilwara,IN,87.12,overcast clouds,25.35,74.6333,Hotel Radiance Bhilwara
1665,Viransehir,TR,81.0,clear sky,37.2353,39.7631,Viranşehir Öğretmenevi
1666,Saint Andrews,US,76.59,mist,34.0454,-81.1293,Baymont by Wyndham Columbia Northwest
1667,Seoni Malwa,IN,80.46,light rain,22.45,77.4667,hotel naman residency
1668,Olutanga,PH,81.84,overcast clouds,7.3106,122.8464,Morales Lodge
1670,Mazagao,BR,78.85,clear sky,-0.115,-51.2894,Recanto dos Ferreiras
1673,Praya,CV,75.74,broken clouds,14.9215,-23.5087,LT Aparthotel
1674,Syracuse,IT,76.59,clear sky,37.0881,15.2792,Hotel Posta
1680,Biak,ID,77.79,overcast clouds,-0.9131,122.8766,Penginapan Kim
1682,Dodge City,US,85.24,clear sky,37.7528,-100.0171,Windsor Inn & Suites
1684,Council Bluffs,US,87.98,clear sky,41.2619,-95.8608,"Holiday Inn Express & Suites Council Bluffs - Conv Ctr Area, an IHG Hotel"
1685,Manthani,IN,78.03,overcast clouds,18.65,79.6667,"Sri Sai bike Paint,manthani"
1686,Kralendijk,BQ,80.58,few clouds,12.15,-68.2667,Divi Flamingo Beach Resort & Casino
1687,Bambanglipuro,ID,85.42,scattered clouds,-7.95,110.2833,Puri Brata
1688,Papara,BR,75.6,few clouds,-3.9839,-38.7273,Bela vista Maranguape
1689,Bima,ID,86.32,broken clouds,-8.4667,118.7167,Lambitu Hotel
1690,Camargo,MX,88.48,broken clouds,27.6667,-105.1667,Hotel Santa Fe
1691,Bageshwar,IN,75.56,overcast clouds,29.85,79.7667,Dangwal house
1696,Kuching,MY,88.02,few clouds,1.55,110.3333,Hilton Kuching
1697,Praia,CV,75.74,broken clouds,14.9215,-23.5087,LT Aparthotel
1698,Kathu,TH,84.69,overcast clouds,7.9178,98.3332,Novotel Phuket Resort
1702,Vila Do Maio,CV,75.99,broken clouds,15.1333,-23.2167,Hotel Marilu
1703,Kirovskiy,RU,82.81,broken clouds,45.0917,133.5136,"Uyut, Gostinitsa"
1705,Rayong,TH,86.68,overcast clouds,12.8333,101.4333,Suan Palm Garden View Hotel
1707,El Tigre,VE,75.81,broken clouds,8.8875,-64.2454,Hotel Santa Cruz
1709,Qala,AZ,78.69,clear sky,40.4418,50.1681,Shuvelan Cottage House
1713,Bagontapay,PH,86.16,overcast clouds,6.8589,124.9089,3JARMY
1714,Yarada,IN,84.52,haze,17.65,83.2667,Yarada Jungle Beach Resorts
1716,Chechat,IN,88.83,overcast clouds,24.7667,75.8833,"Shri raghunath palace, hotal & restrorent"
1717,Khuzdar,PK,79.66,overcast clouds,27.7384,66.6434,jhalwan Rent A Car Compny Moola Chotok
1719,Payo,ID,86.56,broken clouds,-3.7508,103.6372,Mess keban agung
1721,Saint-Louis,SN,85.1,overcast clouds,16.3333,-15.0,
1722,Kainantu,PG,76.15,overcast clouds,-6.2887,145.8655,Sylvester buku
1723,Umm Lajj,SA,83.35,scattered clouds,25.0213,37.2685,Moon light Furnished Units
1731,Port Said,EG,80.01,clear sky,31.2565,32.2841,Aracan Hotel
1737,Kolokani,ML,78.42,light rain,13.5728,-8.0339,Lycee Famolo Coulibalibali De Kolokani
1740,Ouro Preto Do Oeste,BR,78.87,scattered clouds,-10.7481,-62.2158,Graúna Resort Hotel
1742,Xingcheng,CN,80.35,broken clouds,40.6167,120.7167,New Century Hotel
1745,Garango,BF,80.89,overcast clouds,11.8,-0.5506,La Case LAVAL-GARANGO
1749,Oussouye,SN,78.89,light rain,12.485,-16.5469,Auberge du Routard
1754,Fomboni,KM,76.84,few clouds,-12.28,43.7425,Auberge les abou
1755,Do Gonbadan,IR,82.49,dust,30.3586,50.7981,مسافرخانه شادی
1759,Skeldon,GY,75.07,overcast clouds,5.8833,-57.1333,Classic International Hotel & Suites
1760,Golden,US,78.37,light rain,39.7555,-105.2211,"The Golden Hotel, Ascend Hotel Collection"
1764,Rome,US,81.01,clear sky,34.257,-85.1647,La Quinta Inn & Suites by Wyndham Rome
1765,Ozu,JP,83.82,overcast clouds,33.5,132.55,HOTEL FOREST
1766,Panzhihua,CN,83.48,overcast clouds,26.5851,101.7128,Electric Power Hotel
1768,Key Largo,US,84.0,clear sky,25.0865,-80.4473,Bayside Inn Key Largo
1777,Verkhoyansk,RU,81.21,overcast clouds,67.5447,133.385,
1778,Ishigaki,JP,87.93,broken clouds,24.3448,124.1572,Hotel Peace Land Ishigakijima
1786,Muzaffarabad,PK,81.91,broken clouds,34.37,73.4711,Pearl Continental Muzaffarabad
1788,Pak Phanang,TH,89.62,overcast clouds,8.3511,100.202,Green Park Inn Hotel
1794,Bulakamba,ID,84.25,broken clouds,-6.8748,108.9559,Rona
1799,Hua Hin,TH,87.82,few clouds,12.5707,99.9588,"InterContinental Hua Hin Resort, an IHG Hotel"
1805,Novyy Urgal,RU,84.92,few clouds,51.0736,132.5642,
1806,Punto Fijo,VE,79.86,scattered clouds,11.6956,-70.1996,Santa Fe Inn Hotel
1807,Jabinyanah,TN,76.8,clear sky,35.035,10.9081,maison belmabrouk
1808,Mopti,ML,84.24,clear sky,14.6667,-4.0,
1810,Roanoke Rapids,US,79.34,clear sky,36.4615,-77.6542,Hampton Inn Roanoke Rapids
1812,Kedougou,SN,75.78,clear sky,12.5579,-12.1743,Relais de Kédougou
1813,Owatonna,US,77.36,clear sky,44.0839,-93.226,Executive Inn Owatonna
1815,Srikakulam,IN,85.93,overcast clouds,18.3,83.9,Micro Systems
1816,Shilka,RU,77.77,broken clouds,51.85,116.0333,Ip Akinina Yu.a.
1819,Manacor,ES,77.4,few clouds,39.5696,3.2096,Hotel Can Guixa
1823,Parit Buntar,MY,84.18,overcast clouds,5.1267,100.4932,K Garden Hotel Parit Buntar
1825,Ekhabi,RU,75.9,broken clouds,53.5102,142.9671,
1828,Fukue,JP,80.96,broken clouds,32.6881,128.8419,Goto Guesthouse Utojuku & SA Car Rental
1831,Bien Hoa,VN,85.98,broken clouds,10.95,106.8167,OYO 991 Duy Anh Hotel
1833,Razole,IN,77.79,moderate rain,16.4833,81.8333,Sterling Palavelli Godavari
1835,Dunmore Town,BS,82.29,clear sky,25.5,-76.65,Coral Sands Hotel
1841,Kendari,ID,83.08,broken clouds,-3.945,122.4989,Hotel Wixel
1844,Boca Do Acre,BR,78.4,broken clouds,-8.7522,-67.3978,Hotel Sao Pedro
1845,Ryotsu,JP,81.05,overcast clouds,38.0833,138.4333,Sadokamoko Onsen Kohanno Yado Yoshidaya
1846,Tuscaloosa,US,78.04,few clouds,33.2098,-87.5692,Hampton Inn Tuscaloosa-University
1849,Tuni,IN,83.55,overcast clouds,17.35,82.55,Sai Krishna Lodge
1850,Sulangan,PH,83.35,scattered clouds,11.1373,123.7228,Maia's Beach Resort
1852,Lander,US,82.8,clear sky,42.833,-108.7307,"Holiday Inn Express & Suites Lander, an IHG Hotel"
1853,Lahij,YE,87.73,overcast clouds,13.1667,44.5833,
1859,Selikhino,RU,81.66,clear sky,50.3672,137.4996,Tosklivyy Dom
1861,Nisia Floresta,BR,75.58,broken clouds,-6.0911,-35.2086,Rancho Crepusculo
1863,Callaway,US,81.91,broken clouds,30.153,-85.5699,"Holiday Inn Express & Suites Panama City-Tyndall, an IHG Hotel"
1870,Tupelo,US,82.69,clear sky,34.2576,-88.7034,"Hilton Garden Inn Tupelo, MS"
1874,Ceres,US,80.8,clear sky,37.5949,-120.9577,Howard Johnson by Wyndham Modesto Ceres
1876,Galle,LK,79.38,overcast clouds,6.0367,80.217,Amangalla
1877,Tres Picos,MX,79.59,overcast clouds,15.8667,-93.5333,Tres picos Chiapas
1879,Dubti,ET,87.58,scattered clouds,11.7361,41.0853,degu Shiferaw
1880,Ocos,GT,75.38,overcast clouds,14.5094,-92.1933,Auto Hotel El Soñador
1881,Ceyhan,TR,75.04,clear sky,37.0247,35.8175,Ilbeyli Kiz Ogrenci Yurdu
